{
  "type": "FeatureCollection",
  "features": [
    {
      "type": "Feature",
      "properties": { "name": "London" },
      "geometry": {
        "type": "Point",
        "coordinates": [-0.1276, 51.5074]
      }
    },
    {
      "type": "Feature",
      "properties": { "name": "Paris" },
      "geometry": {
        "type": "Point",
        "coordinates": [2.3522, 48.8566]
      }
    },
    {
      "type": "Feature",
      "properties": { "name": "Tokyo" },
      "geometry": {
        "type": "Point",
        "coordinates": [139.6503, 35.6762]
      }
    },
    {
      "type": "Feature",
      "properties": { "name": "New York City" },
      "geometry": {
        "type": "Point",
        "coordinates": [-74.006, 40.7128]
      }
    },
    {
      "type": "Feature",
      "properties": { "name": "Sydney" },
      "geometry": {
        "type": "Point",
        "coordinates": [151.2093, -33.8688]
      }
    },
    {
      "type": "Feature",
      "properties": { "name": "Cairo" },
      "geometry": {
        "type": "Point",
        "coordinates": [31.2357, 30.0444]
      }
    },
    {
      "type": "Feature",
      "properties": { "name": "Rio de Janeiro" },
      "geometry": {
        "type": "Point",
        "coordinates": [-43.1729, -22.9068]
      }
    }
  ]
}
